{"type":"FeatureCollection","features":[{"type":"Feature","geometry":{"type":"Point","coordinates":["-98.473549","29.569931"]},"properties":{"name":"BROOKHOLLOW LIBRARY","address":"530 Heimer Road, San Antonio, TX"}},{"type":"Feature","geometry":{"type":"Point","coordinates":["-98.52116","29.521676"]},"properties":{"name":"CASTLE HILLS CITY HALL (SE CORNER OF COUNCIL CHAMBERS)","address":"209 Lemonwood Dr., San Antonio, TX"}},{"type":"Feature","geometry":{"type":"Point","coordinates":["-98.44747","29.419539"]},"properties":{"name":"CLAUDE BLACK CENTER","address":"2805 East Commerce, San Antonio, TX"}},{"type":"Feature","geometry":{"type":"Point","coordinates":["-98.564552","29.547234"]},"properties":{"name":"CODY LIBRARY","address":"11441 Vance Jackson, San Antonio, TX "}},{"type":"Feature","geometry":{"type":"Point","coordinates":["-98.491782","29.552709"]},"properties":{"name":"COLLINS GARDEN LIBRARY","address":"200 North Park, San Antonio, TX"}},{"type":"Feature","geometry":{"type":"Point","coordinates":["-98.306894","29.507293"]},"properties":{"name":"CONVERSE ED KNEUPPER JUSTICE CENTER","address":"402 S. Seguin Rd, San Antonio, TX"}},{"type":"Feature","geometry":{"type":"Point","coordinates":["-98.394671","29.413638"]},"properties":{"name":"COPERNICUS COMMUNITY CENTER ","address":"5003 Lord Rd., San Antonio, TX"}},{"type":"Feature","geometry":{"type":"Point","coordinates":["-98.360027","29.363164"]},"properties":{"name":"EAST CENTRAL ISD ADMIN BUILDING","address":"6634 New Sulphur Springs Road, San Antonio, TX"}},{"type":"Feature","geometry":{"type":"Point","coordinates":["-98.401666","29.505405"]},"properties":{"name":"FAIR OAKS RANCH CITY HALL (COUNCIL CHAMBERS)","address":"7286 Dietz Elkhorn, San Antonio, TX"}},{"type":"Feature","geometry":{"type":"Point","coordinates":["-98.662088","29.483679"]},"properties":{"name":"GREAT NORTHWEST LIBRARY ","address":"9050 Wellwood, San Antonio, TX"}},{"type":"Feature","geometry":{"type":"Point","coordinates":["-98.625491","29.425702"]},"properties":{"name":"HENRY A. GUERRA, JR. LIBRARY ","address":"7978 W Military Drive, San Antonio, TX"}},{"type":"Feature","geometry":{"type":"Point","coordinates":["-98.421298","29.578716"]},"properties":{"name":"JOHN IGO LIBRARY","address":"13330 Kyle Seale Parkway, San Antonio, TX"}},{"type":"Feature","geometry":{"type":"Point","coordinates":["-98.639404","29.370712"]},"properties":{"name":"JOHNSTON LIBRARY ","address":"6307 Sun Valley Drive, San Antonio, TX"}},{"type":"Feature","geometry":{"type":"Point","coordinates":["-98.372679","29.578494"]},"properties":{"name":"JULIA YATES SEMMES LIBRARY @ Comanche Lookout Park","address":"15060 Judson Road, San Antonio, TX"}},{"type":"Feature","geometry":{"type":"Point","coordinates":["-98.546865","29.418308"]},"properties":{"name":"LAS PALMAS LIBRARY ","address":"515 Castroville Road, San Antonio, TX"}},{"type":"Feature","geometry":{"type":"Point","coordinates":["-98.61301","29.500674"]},"properties":{"name":"LEON VALLEY CONFERENCE CENTER ","address":"6421 Evers Rd, San Antonio, TX"}},{"type":"Feature","geometry":{"type":"Point","coordinates":["-98.472826","29.452856"]},"properties":{"name":"LION’S FIELD ","address":"2809 Broadway, San Antonio, TX"}},{"type":"Feature","geometry":{"type":"Point","coordinates":["-98.642649","29.521973"]},"properties":{"name":"MAURY MAVERICK, JR. LIBRARY ","address":"8700 Mystic Park, San Antonio, TX"}},{"type":"Feature","geometry":{"type":"Point","coordinates":["-98.458809","29.381168"]},"properties":{"name":"MCCRELESS LIBRARY ","address":"1023 Ada Street, San Antonio, TX"}},{"type":"Feature","geometry":{"type":"Point","coordinates":["-98.563459","29.448867"]},"properties":{"name":"MEMORIAL LIBRARY ","address":"3222 Culebra., San Antonio, TX"}},{"type":"Feature","geometry":{"type":"Point","coordinates":["-98.481228","29.364259"]},"properties":{"name":"MISSION LIBRARY ","address":"3134 Roosevelt Ave., San Antonio, TX"}},{"type":"Feature","geometry":{"type":"Point","coordinates":["-98.617691","29.451295"]},"properties":{"name":"NORTHSIDE ACTIVITY CENTER ","address":"7001 Culebra, San Antonio, TX"}},{"type":"Feature","geometry":{"type":"Point","coordinates":["-98.490657","29.471896"]},"properties":{"name":"OLMOS PARK CITY HALL ","address":"120 West El Prado Drive, San Antonio, TX"}},{"type":"Feature","geometry":{"type":"Point","coordinates":["-98.517334","29.634844"]},"properties":{"name":"PARMAN LIBRARY@Stone Oak ","address":"20735 Wilderness Oak, San Antonio, TX"}},{"type":"Feature","geometry":{"type":"Point","coordinates":["-98.55497","29.585917"]},"properties":{"name":"SHAVANO PARK CITY HALL (COUNCIL CHAMB) ","address":"900 Saddletree Ct, San Antonio, TX"}},{"type":"Feature","geometry":{"type":"Point","coordinates":["-98.667884","29.289317"]},"properties":{"name":"SOMERSET HIGH SCHOOL ","address":"7650 South 1604 West, Somerset, San Antonio, TX "}},{"type":"Feature","geometry":{"type":"Point","coordinates":["-98.530971","29.356575"]},"properties":{"name":"SOUTH PARK MALL ","address":"2310 S.W. Military, San Antonio, TX"}},{"type":"Feature","geometry":{"type":"Point","coordinates":["-98.434539","29.509751"]},"properties":{"name":"TOBIN LIBRARY @OAKWELL ","address":"4134 Harry Wurzbach, San Antonio, TX"}},{"type":"Feature","geometry":{"type":"Point","coordinates":["-98.520011","29.448145"]},"properties":{"name":"UNIVERSAL CITY – CITY HALL ","address":"2150 Universal City Blvd., San Antonio, TX"}},{"type":"Feature","geometry":{"type":"Point","coordinates":["-98.379819","29.52299"]},"properties":{"name":"WINDCREST TAKAS PARK CIVIC CENTER ","address":"9310 Jim Seal Dr., San Antonio, TX"}},{"type":"Feature","geometry":{"type":"Point","coordinates":["-98.553621","29.492638"]},"properties":{"name":"WONDERLAND MALL OF THE AMERICAS @ CROSSROADS ","address":"4522 Fredericksburg, San Antonio, TX"}}]}
